     2.10           OBSERVATION DATA    M (MIXED)           RINEX VERSION / TYPE
LoggerServer.exe    NIST                20-Aug-17 23:59     PGM / RUN BY / DATE
The reference is antenna ARP only, mounted on a forced      COMMENT
centering threaded rod that is bolted to a metal tower.     COMMENT
The tower sits on the roof of NIST Building 1.              COMMENT
Signal Strengh values S1,S2 are in dBHz                     COMMENT
NIST                                                        MARKER NAME
49507M002                                                   MARKER NUMBER
NIST                NIST                                    OBSERVER / AGENCY
SWU04029169         NOV OEM4-G2         2.200-L1L2W         REC # / TYPE / VERS
04230007            NOV702          NONE                    ANT # / TYPE
 -1288349.1490 -4721661.0480  4078676.0170                  APPROX POSITION XYZ
        0.0000        0.0000        0.0000                  ANTENNA: DELTA H/E/N
     1     1                                                WAVELENGTH FACT L1/2
     8    C1    L1    D1    S1    P2    L2    D2    S2      # / TYPES OF OBSERV
  2017     8    21     0     0    0.0000000     GPS         TIME OF FIRST OBS
                                                            END OF HEADER
 17  8 21  0  0  0.0000000  0 10G10G13G15G16G18G20G21G24G27G29
  22392367.34248 117672699.87248      2249.89148        46.596    22392369.87545
  91693033.02545      1753.16045        39.263
  23212388.04746 121981955.49946     -2741.21946        43.158    23212387.93243
  95050886.86843     -2136.02043        35.673
  21016737.78149 110443770.26049     -1443.54749        50.199    21016737.20646
  86060119.58546     -1124.84446        41.778
  24863121.38746 130656567.54346     -1927.83646        41.266    24863122.29141
 101810346.62441     -1502.21541        32.072
  20900572.49949 109833285.31349       729.25449        48.554    20900571.69246
  85584395.46846       568.24646        42.034
  21915222.11548 115165350.91348     -2431.28148        46.191    21915220.79444
  89739252.92944     -1894.50844        38.841
  20945153.91549 110067572.57649       609.69949        48.112    20945152.99047
  85766948.02047       475.08647        44.844
  24246269.94544 127415006.34844      2765.46544        37.836    24246272.96743
  99284436.83243      2154.90643        35.161
  23138041.20947 121591246.85647      2422.64547        44.729    23138042.75544
  94746429.05544      1887.77344        38.711
  23460072.23647 123283517.09547     -3751.93047        45.422    23460073.34042
  96065094.15842     -2923.58642        33.914
 17  8 21  0  0 30.0000000  0 10G10G13G15G16G18G20G21G24G27G29
  22379542.33848 117605304.69848      2243.05948        46.329    22379545.13945
  91640517.33345      1747.83645        40.627
  23228075.27547 122064392.10147     -2754.17647        44.237    23228075.34043
  95115123.13343     -2146.11343        34.893
  21025030.81849 110487351.00349     -1461.94949        50.043    21025030.54646
  86094078.59946     -1139.18446        42.091
  24874160.53046 130714576.66946     -1939.08246        41.336    24874161.20842
 101855548.57342     -1510.97742        33.212
  20896430.78449 109811520.74749       721.65649        48.591    20896430.25146
  85567436.06846       562.32846        42.753
  21929114.59648 115238357.15248     -2435.91848        46.195    21929113.59745
  89796140.88045     -1898.12145        39.697
  20941700.29749 110049423.72549       600.15249        48.010    20941699.26447
  85752806.05847       467.64847        44.734
  24230493.84844 127332103.25544      2761.26644        38.387    24230496.21342
  99219837.07442      2151.63742        33.630
  23124252.69647 121518786.02047      2408.15647        44.301    23124254.10745
  94689966.07245      1876.48045        39.025
  23481503.74547 123396139.81347     -3756.34447        44.952    23481504.64343
  96152852.08943     -2927.02343        35.916
 17  8 21  0  1  0.0000000  0 10G10G13G15G16G18G20G21G24G27G29
  22366757.60748 117538121.05548      2236.00448        46.721    22366760.38145
  91588166.47345      1742.33645        40.635
  23243835.44046 122147211.77946     -2767.31646        42.214    23243835.35343
  95179657.94143     -2156.35543        35.783
  21033428.57449 110531482.27749     -1480.17649        50.006    21033428.49846
  86128466.60346     -1153.38746        41.984
  24885262.60645 130772918.48945     -1950.24245        40.974    24885263.49841
 101901009.73641     -1519.67241        30.970
  20892332.91749 109789986.46149       713.99649        48.598    20892332.47446
  85550656.11546       556.35546        42.338
  21943035.07048 115311508.98048     -2440.81648        46.222    21943033.93645
  89853142.30645     -1901.93845        39.003
  20938301.28949 110031562.03249       590.64849        47.923    20938300.20347
  85738887.85347       460.24247        44.927
  24214741.93045 127249326.22745      2757.12945        40.301    24214743.76542
  99155335.52042      2148.41442        33.744
  23110546.17346 121446758.57746      2393.61346        42.926    23110547.90944
  94633840.81044      1865.14844        38.640
  23502959.11747 123508888.76247     -3760.29347        45.330    23502960.43443
  96240708.29843     -2930.10243        34.690
 17  8 21  0  1 30.0000000  0 10G10G13G15G16G18G20G21G24G27G29
  22354013.28248 117471149.16348      2229.00848        46.389    22354015.98945
  91535980.59045      1736.88745        41.021
  23259667.68346 122230411.95446     -2779.74646        43.307    23259667.53642
  95244489.25742     -2166.03942        32.491
  21041930.69049 110576161.81149     -1498.46149        50.117    21041930.58746
  86163281.81846     -1167.63746        41.990
  24896427.30445 130831590.23545     -1961.40645        40.169    24896427.88141
 101946727.98741     -1528.37141        28.864
  20888278.87049 109768682.33149       706.34049        48.446    20888278.25746
  85534055.50346       550.39146        42.243
  21956982.92148 115384805.75648     -2445.58248        46.092    21956981.64844
  89910256.67544     -1905.65244        38.299
  20934957.10449 110013988.69849       580.96549        47.804    20934956.00347
  85725194.34347       452.69547        44.807
  24199014.68244 127166678.64744      2752.39544        38.868    24199016.68344
  99090934.81744      2144.72344        38.039
  23096922.20146 121375166.87346      2379.37546        42.005    23096924.65945
  94578055.09345      1854.05545        39.079
  23524438.27947 123621761.47847     -3764.30147        45.203    23524439.06042
  96328661.01742     -2933.22342        33.971
 17  8 21  0  2  0.0000000  0 10G10G13G15G16G18G20G21G24G27G29
  22341309.17248 117404389.17848      2221.95348        46.210    22341312.00445
  91483959.83745      1731.39145        40.214
  23275571.89046 122313989.95946     -2792.03546        42.919    23275572.19941
  95309614.92241     -2175.61341        31.913
  21050536.82049 110621387.86749     -1516.60549        49.989    21050536.73946
  86198522.89946     -1181.77346        42.039
  24907654.38644 130890589.07344     -1971.81244        37.796    24907654.87141
 101992701.06241     -1536.48041        30.954
  20884268.37149 109747607.41449       698.60949        48.360    20884267.72446
  85517633.50246       544.36746        41.852
  21970957.93248 115458245.78648     -2450.52348        46.234    21970956.92144
  89967482.64744     -1909.50444        38.328
  20931668.01849 109996705.04249       571.28949        47.934    20931666.97947
  85711726.56547       445.15647        44.398
  24183312.38944 127084163.54044      2748.20344        38.509    24183315.30444
  99026637.43544      2141.45344        37.751
  23083381.49846 121304013.30146      2364.57846        42.308    23083384.62544
  94522610.79444      1842.52344        38.604
  23545940.39947 123734755.11847     -3768.41847        45.050    23545940.89243
  96416707.97643     -2936.43443        35.273
 17  8 21  0  2 30.0000000  0 10G10G13G15G16G18G20G21G24G27G29
  22328645.14948 117337841.25048      2214.70348        45.769    22328648.44145
  91432104.33945      1725.73845        40.944
  23291547.63446 122397943.23146     -2804.93846        42.767    23291548.06842
  95375033.04742     -2185.66842        33.261
  21059246.62849 110667158.40149     -1534.72349        50.156    21059246.78946
  86234188.24146     -1195.89146        41.808
  24918943.26744 130949912.31344     -1982.79744        38.505    24918943.74341
 102038926.89541     -1545.03941        28.858
  20880301.56249 109726761.65649       690.94149        48.623    20880300.57346
  85501390.05946       538.39546        41.989
  21984960.21648 115531828.52748     -2455.19548        45.804    21984959.47844
  90024819.84244     -1913.14144        37.892
  20928434.30549 109979712.39049       561.48849        47.872    20928433.34547
  85698485.53747       437.52047        44.892
  24167636.13145 127001784.12145      2743.90645        39.217    24167639.41043
  98962445.74743      2138.10543        35.946
  23069925.13146 121233300.23446      2349.68446        43.187    23069928.37745
  94467509.72345      1830.91845        39.069
  23567464.48247 123847867.38047     -3772.32447        43.671    23567464.99143
  96504847.32243     -2939.47743        35.064
 17  8 21  0  3  0.0000000  0 10G10G13G15G16G18G20G21G24G27G29
  22316021.60348 117271505.58948      2207.58648        46.253    22316025.22945
  91380414.24645      1720.19545        39.841
  23307594.52647 122482268.92747     -2817.16447        44.058    23307594.90442
  95440741.35342     -2195.19542        32.969
  21068059.87549 110713471.58849     -1552.79749        50.012    21068060.04546
  86270276.44046     -1209.97746        42.752
  24930293.14844 131009557.33844     -1993.50844        38.359    24930294.13941
 102085403.48641     -1553.39141        32.104
  20876378.35549 109706144.51849       683.49649        48.866    20876377.04346
  85485324.75946       532.59046        41.333
  21998989.36447 115605553.08947     -2459.97347        45.453    21998988.73444
  90082267.54044     -1916.86344        38.502
  20925256.35749 109963012.04649       551.81649        47.865    20925255.37547
  85685472.28647       429.98447        44.812
  24151985.99544 126919543.41144      2739.00844        37.117    24151989.23543
  98898362.10643      2134.28543        36.661
  23056553.63447 121163030.04847      2334.94947        44.327    23056556.37545
  94412753.75245      1819.43845        40.705
  23589010.85147 123961094.72447     -3776.17247        44.702    23589011.20442
  96593076.37042     -2942.47742        34.309
 17  8 21  0  3 30.0000000  0 10G10G13G15G16G18G20G21G24G27G29
  22303438.91248 117205382.39148      2200.52748        46.731    22303442.24845
  91328889.68745      1714.69545        40.709
  23323711.84947 122566964.31147     -2829.32447        44.001    23323711.92842
  95506737.73242     -2204.67242        34.059
  21076975.93449 110760325.44749     -1570.80149        49.684    21076976.08446
  86306785.93646     -1224.00446        42.430
  24941703.53444 131069521.05344     -2004.03944        38.115    24941705.17041
 102132128.40841     -1561.59841        31.660
  20872498.63349 109685756.01649       675.80949        48.637    20872497.12746
  85469437.61446       526.60246        41.614
  22013045.29348 115679418.13348     -2464.51248        45.731    22013044.87144
  90139824.70144     -1920.40244        38.163
  20922134.29448 109946605.55048       541.90648        47.748    20922133.51347
  85672688.00347       422.26247        44.944
  24136362.80944 126837444.67744      2733.79344        37.973    24136365.47841
  98834389.11441      2130.22741        31.681
  23043266.74947 121093205.00247      2320.05147        45.084    23043269.24645
  94358344.64045      1807.82845        39.963
  23610578.80747 124074435.14747     -3779.90647        43.909    23610579.72743
  96681393.50443     -2945.38343        34.818
 17  8 21  0  4  0.0000000  0 10G10G13G15G16G18G20G21G24G27G29
  22290896.83548 117139471.81248      2193.44948        46.748    22290899.93246
  91277530.82246      1709.18046        41.389
  23339898.91747 122652026.94347     -2841.59047        43.667    23339898.25442
  95573020.32442     -2214.23042        33.505
  21085994.29849 110807718.00449     -1588.68449        49.677    21085994.54846
  86343715.19346     -1237.93846        41.774
  24953174.36345 131129800.22845     -2014.48845        38.942    24953175.68842
 102179099.12542     -1569.73442        34.163
  20868661.99649 109665594.76349       668.16449        48.579    20868660.48946
  85453727.55646       520.64546        41.652
  22027128.00847 115753422.84947     -2468.95747        45.228    22027127.54645
  90197490.69245     -1923.86745        39.013
  20919068.41249 109930494.09149       532.14549        47.810    20919067.64247
  85660133.62747       414.65647        45.004
  24120767.02745 126755490.81745      2729.37945        39.528    24120770.48443
  98770529.02143      2126.78543        35.187
  23030065.05547 121023827.48047      2305.18047        44.894    23030067.08745
  94304284.23045      1796.24245        39.732
  23632168.09447 124187885.81247     -3783.65247        44.308    23632168.89342
  96769796.57042     -2948.30542        34.064
 17  8 21  0  4 30.0000000  0 10G10G13G15G16G18G20G21G24G27G29
  22278395.27548 117073774.02148      2186.44148        46.693    22278398.15146
  91226337.75146      1703.71946        41.255
  23356154.86646 122737453.76046     -2853.76246        42.218    23356154.35642
  95639586.62942     -2223.71942        33.083
  21095114.68949 110855646.98449     -1606.61349        49.846    21095114.97946
  86381062.44946     -1251.91046        41.710
  24964704.89245 131190392.38145     -2025.16445        39.090    24964705.88541
 102226313.78641     -1578.05541        26.056
  20864868.67849 109645660.93549       660.78149        48.344    20864867.29146
  85438194.70346       514.89146        41.814
  22041237.12548 115827566.20648     -2473.84048        45.991    22041236.51944
  90255264.73744     -1927.67244        37.389
  20916058.82949 109914678.37049       522.18449        47.986    20916057.93347
  85647809.69447       406.89547        44.913
  24105200.07845 126673685.59745      2724.20745        39.472    24105203.58443
  98706784.76043      2122.75443        36.247
  23016948.72447 120954899.74547      2290.05147        44.187    23016950.00445
  94250574.31045      1784.45345        39.339
  23653777.39546 124301443.98546     -3787.04746        42.622    23653778.35943
  96858283.38643     -2950.95343        34.718
 17  8 21  0  5  0.0000000  0 10G10G13G15G16G18G20G21G24G27G29
  22265934.07248 117008289.17148      2179.23048        46.924    22265936.70845
  91175310.62245      1698.09845        40.728
  23372479.50345 122823242.71545     -2865.73045        40.962    23372479.54042
  95706435.13142     -2233.03942        34.082
  21104337.02649 110904110.56049     -1624.30149        49.957    21104337.09046
  86418826.26746     -1265.69146        41.421
  24976294.40945 131251294.53945     -2035.02345        39.694    24976295.36942
 102273769.96542     -1585.73442        33.613
  20861118.37749 109625953.69249       653.15649        48.494    20861117.35246
  85422838.41946       508.94946        41.720
  22055372.31347 115901847.30547     -2478.18047        45.466    22055371.69344
  90313146.07944     -1931.05144        37.428
  20913105.99949 109899160.49349       512.05949        48.045    20913104.83747
  85635717.84647       399.00447        45.043
  24089662.12844 126592031.78644      2719.35244        38.173    24089665.72543
  98643158.44743      2118.97343        36.392
  23003917.97146 120886424.10146      2274.95346        43.263    23003919.52045
  94197216.67745      1772.68845        39.602
  23675407.10147 124415107.18047     -3790.46947        44.960    23675408.09242
  96946852.04842     -2953.61342        32.815
 17  8 21  0  5 30.0000000  0 10G10G13G15G16G18G20G21G24G27G29
  22253513.14548 116943017.44348      2172.05148        46.045    22253515.61245
  91124449.55945      1692.50445        41.056
  23388872.57046 122909390.72446     -2877.72346        41.729    23388873.18343
  95773563.42743     -2242.38343        34.548
  21113660.80949 110953106.79849     -1642.07449        49.990    21113660.77646
  86457005.15746     -1279.54346        42.226
  24987942.10045 131312504.10445     -2045.46945        39.242    24987943.44442
 102321465.67542     -1593.87942        33.752
  20857411.27949 109606472.76349       645.59849        48.582    20857410.35746
  85407658.48946       503.05946        41.667
  22069533.80048 115976265.33348     -2483.03948        46.019    22069533.11244
  90371134.14444     -1934.84044        37.517
  20910210.08649 109883941.90749       502.35249        48.109    20910208.65847
  85623859.20547       391.44147        44.537
  24074152.87344 126510532.81944      2714.05544        37.607    24074157.23244
  98579652.90344      2114.85244        36.951
  22990973.49546 120818402.84146      2259.64546        43.116    22990975.48445
  94144213.12745      1760.75845        39.119
  23697055.75046 124528872.93746     -3793.89546        42.413    23697056.97343
  97035500.60343     -2956.28943        35.290
 17  8 21  0  6  0.0000000  0 10G10G13G15G16G18G20G21G24G27G29
  22241132.56248 116877958.97148      2164.93848        45.998    22241135.34445
  91073754.67945      1686.96145        40.715
  23405333.93746 122995895.11146     -2889.26646        42.834    23405334.31042
  95840969.39342     -2251.37942        33.796
  21123085.61849 111002633.65049     -1659.67649        50.135    21123085.59146
  86495597.50646     -1293.25846        41.875
  24999647.96844 131374018.05644     -2055.35944        38.640    24999648.46742
 102369398.63842     -1601.58242        33.873
  20853747.17749 109587217.79649       637.96949        48.389    20853746.09746
  85392654.62046       497.11746        41.655
  22083720.95248 116050818.91148     -2487.33248        45.886    22083720.67144
  90429227.82444     -1938.18444        38.568
  20907371.27849 109869023.61649       492.32449        48.070    20907369.75447
  85612234.56347       383.62547        44.384
  24058674.20045 126429191.44745      2708.85545        39.288    24058677.96743
  98516270.04143      2110.79343        34.909
  22978116.10946 120750838.24346      2244.12546        43.212    22978118.59145
  94091565.41445      1748.66445        39.401
  23718723.71447 124642737.83747     -3797.05547        45.322    23718724.88842
  97124226.45142     -2958.74642        34.263
 17  8 21  0  6 30.0000000  0 10G10G13G15G16G18G20G21G24G27G29
  22228792.78348 116813113.90848      2157.93048        46.312    22228795.73445
  91023226.08445      1681.50045        40.349
  23421862.75646 123082753.15346     -2900.97746        43.296    23421862.75842
  95908650.95842     -2260.50442        34.142
  21132611.00449 111052689.02549     -1677.27749        50.146    21132610.99046
  86534601.69446     -1306.97346        41.397
  25011411.17044 131435833.73344     -2065.54744        37.723    25011411.67942
 102417566.70142     -1609.51642        33.700
  20850125.91049 109568188.12749       630.55149        48.563    20850124.78146
  85377826.31546       491.33646        41.570
  22097933.71648 116125507.08648     -2491.91848        45.955    22097933.44744
  90487426.39944     -1941.75844        37.875
  20904589.66849 109854406.78249       482.23049        47.929    20904588.25447
  85600844.83647       375.76247        44.604
  24043226.44445 126348011.30945      2703.13745        38.942    24043229.28742
  98453012.82742      2106.34042        33.031
  22965346.24547 120683732.58047      2229.34847        43.418    22965348.78645
  94039275.28545      1737.15245        39.019
  23740409.69246 124756699.48546     -3800.34846        42.887    23740411.00141
  97213027.65241     -2961.31241        31.688
 17  8 21  0  7  0.0000000  0 10G10G13G15G16G18G20G21G24G27G29
  22216493.96648 116748482.45748      2150.87548        47.029    22216496.61245
  90972863.93245      1676.00445        40.631
  23438458.55347 123169962.29847     -2912.78147        43.950    23438457.51642
  95976606.15642     -2269.70342        34.264
  21142236.34149 111103270.65849     -1694.83649        49.789    21142236.52246
  86574015.95246     -1320.65646        41.864
  25023230.56044 131497947.73144     -2074.84044        37.109    25023231.71241
 102465967.16841     -1616.76241        15.132
  20846547.53949 109549383.53049       623.07449        48.464    20846546.46546
  85363173.38046       485.50846        41.729
  22112171.71547 116200329.29947     -2496.22747        44.907    22112171.60344
  90545729.41144     -1945.11344        38.242
  20901865.61949 109840092.47749       472.14549        47.822    20901864.32547
  85589690.83247       367.90247        44.390
  24027809.56044 126266995.14544      2697.54744        37.180    24027812.31343
  98389883.38643      2101.98443        35.849
  22952664.09947 120617088.09747      2214.02347        43.575    22952666.73245
  93987344.54145      1725.21145        40.310
  23762113.72047 124870755.31647     -3803.18047        43.591    23762114.84243
  97301902.25543     -2963.52043        35.093
 17  8 21  0  7 30.0000000  0 10G10G13G15G16G18G20G21G24G27G29
  22204235.84448 116684064.73148      2143.82048        47.194    22204238.37145
  90922668.33045      1670.50845        40.122
  23455120.28346 123257519.83646     -2924.45346        43.265    23455118.92741
  96044832.80641     -2278.79741        31.758
  21151961.33249 111154376.56049     -1712.19149        49.863    21151961.58246
  86613838.72446     -1334.18046        41.895
  25035106.57643 131560357.70943     -2085.08643        35.481    25035107.97643
 102514598.24643     -1624.74643        35.566
  20843011.87149 109530803.32649       615.61349        48.739    20843010.65046
  85348695.31046       479.69546        42.056
  22126435.04247 116275284.30847     -2500.59047        45.001    22126435.11945
  90604135.88945     -1948.51645        39.227
  20899199.64049 109826082.79649       461.87149        47.888    20899198.41247
  85578774.20647       359.89547        44.515
  24012424.30044 126186146.63544      2691.98444        37.779    24012427.54044
  98326884.62644      2097.65244        37.744
  22940070.59647 120550907.07047      2198.43847        45.136    22940072.89644
  93935774.91144      1713.06644        38.217
  23783834.77746 124984902.75446     -3806.31246        41.288    23783836.41842
  97390848.22642     -2965.96542        33.615
 17  8 21  0  8  0.0000000  0 10G10G13G15G16G18G20G21G24G27G29
  22192018.40048 116619860.90448      2136.58248        46.918    22192020.95445
  90872639.39945      1664.86745        40.773
  23471847.58046 123345422.98446     -2935.73846        41.977    23471846.49943
  96113328.73443     -2287.59043        35.130
  21161785.86549 111206004.97249     -1729.65649        49.912    21161786.03946
  86654068.64746     -1347.78946        41.748
  25047038.44143 131623060.53743     -2094.98443        36.367    25047039.99442
 102563457.56842     -1632.45742        34.008
  20839519.03049 109512447.27549       608.07049        48.685    20839517.61146
  85334391.89846       473.81646        41.920
  22140723.40747 116350371.28347     -2505.00847        44.622    22140723.78244
  90662645.20544     -1951.95744        38.811
  20896591.97249 109812378.83549       451.60949        47.906    20896590.62847
  85568095.79547       351.89847        44.753
  23997071.30745 126105468.24945      2686.52745        38.926    23997075.01843
  98264018.42143      2093.39543        35.628
  22927565.88047 120485191.69447      2182.67247        45.072    22927567.67445
  93884568.12245      1700.78145        39.934
  23805573.46747 125099139.15647     -3809.31247        44.857    23805575.12142
  97479863.54942     -2968.29742        34.341
 17  8 21  0  8 30.0000000  0 10G10G13G15G16G18G20G21G24G27G29
  22179841.60348 116555871.09148      2129.32848        47.176    22179844.20046
  90822777.24346      1659.21546        41.182
  23488640.13046 123433669.12746     -2947.36346        41.517    23488639.54143
  96182091.95743     -2296.64843        35.499
  21171709.33049 111258153.10149     -1746.93849        49.641    21171709.39846
  86694703.55246     -1361.25446        41.690
  25059025.40444 131686053.33844     -2104.45344        37.518    25059026.99041
 102612542.77041     -1639.83641        27.755
  20836068.67649 109494315.00149       600.60249        48.740    20836067.28446
  85320262.85546       467.99646        42.024
  22155036.85747 116425589.64847     -2509.41447        44.777    22155036.92444
  90721256.90644     -1955.39144        38.035
  20894042.59449 109798981.14849       441.43449        48.076    20894041.07147
  85557656.04247       343.97347        44.507
  23981752.28645 126024963.86345      2680.48445        39.704    23981755.39844
  98201287.72944      2088.68844        38.089
  22915149.70147 120419944.16447      2167.14547        43.985    22915151.36545
  93833725.88745      1688.68045        40.178
  23827328.34846 125213461.68446     -3812.19946        43.085    23827330.55942
  97568945.96942     -2970.54742        32.661
 17  8 21  0  9  0.0000000  0 10G10G13G15G16G18G20G21G24G27G29
  22167705.48748 116492095.45448      2122.18848        47.179    22167708.32745
  90773081.96445      1653.64845        40.934
  23505497.61946 123522255.43346     -2958.20346        43.198    23505497.53542
  96251120.20342     -2305.09842        32.872
  21181731.36349 111310819.00149     -1764.06249        49.675    21181731.35746
  86735741.91846     -1374.59846        41.696
  25071067.46444 131749333.07744     -2114.38744        36.988    25071068.78241
 102661851.68541     -1647.57841        26.468
  20832660.74149 109476406.00949       593.27349        48.728    20832659.44246
  85306307.80146       462.28946        41.892
  22169375.03747 116500938.13347     -2513.66047        44.501    22169374.63144
  90779969.99444     -1958.69944        38.036
  20891551.74149 109785891.18449       431.09849        48.067    20891550.15847
  85547456.07147       335.91847        44.154
  23966466.50244 125944636.21444      2674.14144        38.754    23966469.87743
  98138694.79643      2083.74243        36.383
  22902822.62347 120355166.68347      2151.48447        44.215    22902824.91145
  93783249.97945      1676.47745        38.899
  23849099.09747 125327867.69947     -3815.06647        43.359    23849101.12443
  97658093.41543     -2972.78143        34.668
 17  8 21  0  9 30.0000000  0 10G10G13G15G16G18G20G21G24G27G29
  22155610.20848 116428534.13748      2115.03948        47.136    22155613.02845
  90723553.68445      1648.07845        41.109
  23522419.48646 123611179.10646     -2969.83646        43.024    23522419.38443
  96320411.35743     -2314.16043        34.857
  21191851.53249 111364000.70949     -1781.33249        49.680    21191851.61046
  86777182.20546     -1388.05546        42.023
  25083163.27044 131812896.78444     -2123.57044        37.558    25083163.89041
 102711381.78741     -1654.73441        31.036
  20829295.08149 109458719.73049       585.82849        48.676    20829293.88846
  85292526.29746       456.48446        42.001
  22183738.03047 116576415.67847     -2518.14147        44.768    22183737.49443
  90838783.66643     -1962.19143        36.579
  20889119.67049 109773110.38649       420.86349        47.935    20889118.10647
  85537497.00747       327.94147        44.826
  23951214.21043 125864488.47043      2668.85943        36.385    23951218.42244
  98076242.11744      2079.63344        36.772
  22890585.71147 120290861.48847      2135.58247        43.669    22890588.13345
  93733142.04445      1664.08645        41.014
  23870885.55547 125442354.34447     -3817.62547        43.684    23870887.14142
  97747303.71042     -2974.77742        34.317
 17  8 21  0 10  0.0000000  0 10G10G13G15G16G18G20G21G24G27G29
  22143555.67848 116365187.25348      2108.04348        46.789    22143558.42546
  90674192.51346      1642.62946        42.320
  23539405.02046 123700437.76246     -2980.73046        42.640    23539404.82342
  96389963.51842     -2322.64842        34.133
  21202069.38549 111417696.05149     -1798.37949        49.759    21202069.48446
  86819022.71846     -1401.33646        42.108
  25095312.97045 131876741.54745     -2132.63345        39.470    25095313.78941
 102761130.89341     -1661.80141        28.859
  20825971.68249 109441255.63549       578.41449        48.610    20825970.51646
  85278917.91146       450.71146        41.946
  22198125.30947 116652021.25547     -2522.16047        44.603    22198124.62844
  90897697.10144     -1965.32444        37.958
  20886746.67749 109760640.03249       410.39849        48.020    20886745.17947
  85527779.85047       319.78947        44.756
  23935997.66845 125784524.38845      2662.63745        39.284    23936001.48044
  98013932.47644      2074.78144        37.292
  22878438.81747 120227030.68347      2119.64847        43.878    22878441.44245
  93683403.78945      1651.67245        40.284
  23892686.64647 125556919.08247     -3820.04747        43.409    23892687.66942
  97836574.86742     -2976.66442        33.211
 17  8 21  0 10 30.0000000  0 10G10G13G15G16G18G20G21G24G27G29
  22131541.94948 116302054.97548      2100.80148        47.345    22131544.77745
  90624998.56645      1636.98445        41.061
  23556453.85947 123790028.35447     -2991.69947        43.755    23556453.13542
  96459774.34642     -2331.19942        33.553
  21212384.62049 111471902.70549     -1815.41449        49.582    21212384.72746
  86861261.66446     -1414.61346        42.423
  25107515.42244 131940864.86144     -2141.89544        38.099    25107515.98441
 102811097.09041     -1669.01241        25.170
  20822690.62749 109424013.37149       571.06249        48.924    20822689.28146
  85265482.38546       444.98046        41.962
  22212536.89447 116727754.12047     -2526.64147        45.545    22212536.09743
  90956709.70243     -1968.81243        36.561
  20884433.09249 109748482.23149       400.12149        48.134    20884431.61747
  85518306.24147       311.78147        44.604
  23920817.06045 125704746.51345      2656.42245        40.990    23920820.29644
  97951767.91044      2069.93844        37.187
  22866382.69447 120163676.43747      2104.01247        43.758    22866385.49345
  93634036.88245      1639.48845        39.904
  23914502.37446 125671559.36846     -3822.72346        43.176    23914503.32943
  97925904.88943     -2978.75443        34.481
 17  8 21  0 11  0.0000000  0 10G10G13G15G16G18G20G21G24G27G29
  22119569.18348 116239137.43148      2093.86748        47.137    22119571.93046
  90575971.92046      1631.58246        41.721
  23573565.04646 123879948.32946     -3002.74246        42.552    23573564.33042
  96529841.85242     -2339.80542        32.472
  21222796.71549 111526618.62149     -1832.27049        49.735    21222796.73946
  86903897.43646     -1427.74646        41.700
  25119770.09244 132005263.38644     -2150.96944        38.554    25119770.76542
 102861277.70242     -1676.08642        33.415
  20819451.70149 109406992.57449       563.71149        48.769    20819450.40346
  85252219.43446       439.25446        42.030
  22226972.66747 116803613.52847     -2530.63347        45.316    22226971.79943
  91015820.91843     -1971.92643        35.632
  20882179.24449 109736637.85649       389.70749        48.259    20882177.68347
  85509076.85447       303.66447        44.744
  23905672.16945 125625158.57345      2649.88745        39.633    23905675.63644
  97889751.35444      2064.84444        37.878
  22854418.07547 120100800.99047      2087.85947        44.214    22854420.71646
  93585043.02546      1626.89846        41.489
  23936331.70146 125786272.69146     -3825.14146        43.135    23936333.31142
  98015291.79842     -2980.63342        33.063
 17  8 21  0 11 30.0000000  0 10G10G13G15G16G18G20G21G24G27G29
  22107637.11848 116176434.70748      2086.40248        46.742    22107639.89646
  90527112.67746      1625.76646        41.360
  23590738.26546 123970194.88246     -3013.57446        42.096    23590737.59142
  96600163.82442     -2348.24242        32.989
  21233305.28349 111581841.64349     -1849.26649        49.695    21233305.25546
  86946928.36246     -1440.98846        41.349
  25132076.64444 132069934.14144     -2160.18844        37.933    25132076.99441
 102911670.48241     -1683.26641        31.051
  20816254.72849 109390192.87249       556.37149        48.464    20816253.54446
  85239128.75446       433.53146        42.315
  22241432.27647 116879598.44847     -2535.00047        44.887    22241431.61344
  91075029.94344     -1975.32844        37.426
  20879985.05449 109725107.03149       379.10549        48.231    20879983.50847
  85500091.79547       295.40247        44.605
  23890563.33644 125545763.44844      2643.00044        37.009    23890567.18744
  97827885.07244      2059.47744        37.633
  22842544.70347 120038406.40947      2071.82447        44.286    22842547.47845
  93536423.89545      1614.40645        39.696
  23958174.40947 125901055.88647     -3827.09047        44.623    23958175.65242
  98104733.18042     -2982.15242        32.532
 17  8 21  0 12  0.0000000  0 10G10G13G15G16G18G20G21G24G27G29
  22095745.94948 116113946.98248      2079.16448        47.039    22095748.68846
  90478420.96646      1620.12546        41.295
  23607972.72545 124060765.29745     -3024.16445        40.982    23607972.94342
  96670738.13542     -2356.49642        33.777
  21243909.80149 111637569.41449     -1866.06649        49.452    21243909.88846
  86990352.59046     -1454.08246        41.148
  25144434.30244 132134874.27544     -2169.42644        37.347    25144434.98841
 102962273.14041     -1690.46941        23.807
  20813099.77649 109373613.61649       548.98849        48.373    20813098.62346
  85226209.85446       427.78146        42.382
  22255915.53647 116955708.05147     -2538.95347        45.027    22255914.84644
  91134336.11344     -1978.41044        37.085
  20877850.95949 109713891.95249       368.54349        48.263    20877849.37747
  85491352.77047       287.17247        44.587
  23875491.72845 125466564.01945      2636.84045        39.733    23875495.67843
  97766171.31843      2054.67643        34.705
  22830763.51947 119976494.80747      2055.59847        44.755    22830766.13245
  93488181.10745      1601.76245        40.130
  23980029.79346 126015906.86846     -3829.47346        42.559    23980030.81643
  98194227.36743     -2984.00843        34.822
 17  8 21  0 12 30.0000000  0 11G10G13G15G16G18G20G21G24G27G29G32
  22083895.80448 116051674.33948      2072.04748        47.194    22083898.48445
  90429896.85645      1614.57845        40.920
  23625268.89646 124151656.96646     -3034.83246        41.787    23625268.59442
  96741562.81442     -2364.80942        33.097
  21254609.89549 111693799.52849     -1882.70749        49.630    21254610.05146
  87034168.25546     -1467.04746        41.514
  25156842.73344 132200080.93444     -2178.24644        37.631    25156843.44141
 103013083.44641     -1697.34041        28.816
  20809986.61049 109357254.38949       541.67249        48.334    20809985.56246
  85213462.41346       422.07846        42.376
  22270422.36147 117031941.56447     -2543.36347        45.554    22270421.35243
  91193738.83043     -1981.84443        36.371
  20875777.14849 109702994.02349       357.91449        47.921    20875775.55747
  85482860.87647       278.89147        44.747
  23860459.10845 125387563.68045      2629.73845        41.066    23860462.53643
  97704612.64243      2049.14543        34.932
  22819074.87948 119915068.30848      2039.45348        46.016    22819077.07845
  93440316.31945      1589.18045        39.422
  24001897.66646 126130822.83846     -3831.40246        43.323    24001898.37542
  98283772.19342     -2985.51642        32.341
  25043042.26545 131602076.29345      3758.17645        40.292    25043045.75943
 102547083.86243      2928.44943        35.230
 17  8 21  0 13  0.0000000  0 11G10G13G15G16G18G20G21G24G27G29G32
  22072086.69348 115989616.93448      2065.05548        47.161    22072089.27546
  90381540.44746      1609.12946        41.635
  23642625.67746 124242867.07946     -3045.50846        42.551    23642625.17742
  96812635.58842     -2373.12542        33.618
  21265405.19949 111750529.80949     -1899.32449        49.469    21265405.50445
  87078373.66545     -1479.99645        41.027
  25169301.20244 132265551.19944     -2186.87944        37.304    25169302.10141
 103064099.23341     -1704.06641        28.728
  20806915.32649 109341114.80049       534.32849        48.372    20806914.42346
  85200886.11746       416.35546        42.222
  22284952.59647 117108297.88547     -2547.22347        44.858    22284951.46144
  91253237.25644     -1984.85244        38.230
  20873763.81449 109692414.56349       347.26249        47.946    20873762.23847
  85474617.13647       270.59047        44.780
  23845464.73145 125308765.87345      2623.02745        40.433    23845467.75243
  97643211.75843      2043.91443        35.730
  22807478.66047 119854128.98547      2023.17647        44.839    22807480.77945
  93392831.14745      1576.49645        39.760
  24023777.35647 126245800.58947     -3833.70347        43.637    24023778.39442
  98373365.18842     -2987.30942        33.917
  25021591.99445 131489354.36345      3756.46945        39.215    25021596.03342
 102459248.65242      2927.11742        34.310
 17  8 21  0 13 30.0000000  0 11G10G13G15G16G18G20G21G24G27G29G32
  22060318.46348 115927774.88248      2057.87948        47.123    22060321.25546
  90333351.84946      1603.53946        41.266
  23660042.76646 124334392.77446     -3056.08646        42.798    23660042.05642
  96883954.31642     -2381.36742        33.376
  21276295.31149 111807758.18249     -1915.81649        49.740    21276295.72146
  87122967.19446     -1492.84846        41.359
  25181809.19444 132331281.66644     -2195.33644        37.214    25181810.57842
 103115317.72942     -1710.66442        32.296
  20803885.77449 109325194.39849       527.08249        48.558    20803884.93146
  85188480.61946       410.71146        42.113
  22299505.99847 117184776.35247     -2551.28547        45.122    22299505.03744
  91312830.85544     -1988.02044        37.593
  20871811.31649 109682154.77249       336.62549        48.039    20871809.83047
  85466622.49447       262.30147        44.565
  23830508.94744 125230173.63744      2616.46944        38.531    23830511.95244
  97581971.08744      2038.80544        37.201
  22795975.31847 119793678.92847      2006.88347        44.643    22795977.20645
  93345727.22545      1563.80145        39.457
  24045668.13447 126360837.98647     -3835.47347        43.386    24045669.82142
  98463004.63942     -2988.68442        33.542
  25000151.05445 131376681.60845      3754.92245        39.607    25000154.65143
 102371451.86343      2925.91043        34.584
 17  8 21  0 14  0.0000000  0 11G10G13G15G16G18G20G21G24G27G29G32
  22048591.18348 115866148.27248      2050.59848        46.977    22048594.20846
  90285331.12046      1597.86346        41.332
  23677519.23546 124426231.48446     -3066.30146        42.554    23677518.60343
  96955516.90143     -2389.32843        35.018
  21287279.97449 111865482.24849     -1932.37549        49.729    21287280.20346
  87167946.97746     -1505.75046        41.250
  25194366.41344 132397269.78544     -2203.80944        38.042    25194367.09541
 103166737.00941     -1717.25841        27.869
  20800897.90449 109309492.92749       519.71149        48.493    20800897.13946
  85176245.71546       404.96546        42.224
  22314082.49647 117261376.11047     -2555.47347        44.748    22314081.65344
  91372518.97144     -1991.28144        37.058
  20869919.87749 109672215.62549       325.89549        47.971    20869918.41247
  85458877.70747       253.94147        44.541
  23815591.97744 125151789.94044      2609.53144        38.346    23815596.11343
  97520892.94743      2033.39843        36.602
  22784565.25147 119733720.19047      1990.56247        43.896    22784566.82744
  93299006.15244      1551.08644        38.039
  24067569.86546 126475932.06546     -3837.46946        41.715    24067571.78141
  98552688.27441     -2990.23841        31.988
  24978719.86645 131264060.32645      3753.21945        39.808    24978723.69643
 102283695.12343      2924.58243        34.831
 17  8 21  0 14 30.0000000  0 11G10G13G15G16G18G20G21G24G27G29G32
  22036904.91348 115804737.23948      2043.36748        46.866    22036908.07146
  90237478.39446      1592.23046        42.137
  23695054.43746 124518380.41046     -3076.84846        42.041    23695054.07041
  97027321.21641     -2397.54741        31.086
  21298358.62149 111923699.92249     -1948.77049        49.629    21298358.70946
  87213311.39046     -1518.52346        41.632
  25206972.23744 132463512.59044     -2212.42244        38.331    25206972.77741
 103218354.72241     -1723.97741        31.561
  20797951.52349 109294009.80549       512.50449        48.479    20797950.80646
  85164180.95546       399.35246        41.833
  22328681.50247 117338095.96747     -2559.35947        44.330    22328680.52744
  91432300.66344     -1994.30944        37.913
  20868089.73149 109662598.36749       315.10949        47.914    20868088.24247
  85451383.74247       245.53547        44.206
  23800716.30344 125073618.26144      2602.11744        38.847    23800720.30943
  97459980.01843      2027.62143        36.347
  22773249.03147 119674254.82547      1974.02747        43.641    22773250.60045
  93252669.52645      1538.19945        39.126
  24089481.66746 126591080.41646     -3839.17646        42.867    24089484.04843
  98642414.12043     -2991.57443        34.832
  24957298.76545 131151492.54445      3751.19545        39.734    24957302.46242
 102195980.10442      2923.01642        33.352
 17  8 21  0 15  0.0000000  0 11G10G13G15G16G18G20G21G24G27G29G32
  22025259.94048 115743541.93548      2036.17648        47.362    22025263.00646
  90189793.76546      1586.62946        42.275
  23712648.05145 124610836.76145     -3087.10945        40.435    23712648.30243
  97099365.11143     -2405.54343        34.978
  21309530.75849 111982408.73149     -1965.11349        49.879    21309530.78046
  87259058.50846     -1531.26246        41.187
  25219625.70145 132530007.11445     -2220.60245        38.900    25219626.80041
 103270168.68141     -1730.34441        30.624
  20795046.54949 109278744.71849       505.27749        48.341    20795045.93346
  85152286.08346       393.71946        42.089
  22343303.53147 117414935.38447     -2563.36747        44.560    22343302.51844
  91492175.50644     -1997.43444        36.894
  20866320.90849 109653303.56149       304.42649        47.885    20866319.50947
  85444141.03047       237.21147        44.433
  23785882.04845 124995661.20445      2595.05145        40.701    23785885.43944
  97399234.27244      2022.11344        37.710
  22762027.14747 119615284.84747      1957.31647        43.856    22762029.08345
  93206718.93045      1525.18045        39.315
  24111403.73347 126706280.35247     -3840.85547        43.679    24111405.65642
  98732180.25342     -2992.87942        34.021
  24935888.18745 131038980.48045      3749.25845        39.636    24935892.17342
 102108308.41242      2921.49242        34.158
 17  8 21  0 15 30.0000000  0 11G10G13G15G16G18G20G21G24G27G29G32
  22013656.10248 115682562.41348      2029.17648        47.212    22013658.81746
  90142277.27146      1581.17246        41.905
  23730299.18645 124703598.09145     -3096.77345        40.930    23730299.97142
  97171646.60942     -2413.07442        33.371
  21320795.76549 112041606.16849     -1981.46549        49.650    21320795.78646
  87305186.37646     -1544.00046        41.591
  25232326.39745 132596750.13745     -2228.75445        39.353    25232327.62041
 103322176.14241     -1736.69541        29.934
  20792183.01649 109263697.01749       497.94149        48.318    20792182.56946
  85140560.61246       388.00446        43.012
  22357948.29747 117491893.27447     -2567.16847        45.450    22357947.15244
  91552142.68644     -2000.39544        37.432
  20864614.05349 109644334.34349       293.62549        47.781    20864612.75447
  85437152.02947       228.79747        44.957
  23771089.30345 124917922.62845      2587.64845        40.301    23771092.67844
  97338658.80944      2016.34844        38.704
  22750900.10447 119556812.30447      1940.74247        43.816    22750902.45745
  93161155.93845      1512.26245        40.154
  24133335.07046 126821529.57946     -3842.59446        43.189    24133336.55741
  98821984.78041     -2994.23041        32.101
  24914488.61445 130926526.17445      3747.52345        40.009    24914493.10341
 102020681.80841      2920.14841        28.099
 17  8 21  0 16  0.0000000  0 11G10G13G15G16G18G20G21G24G27G29G32
  22002093.31948 115621798.82048      2021.80948        47.767    22002095.85346
  90094929.04946      1575.43446        41.367
  23748008.54046 124796661.39246     -3107.03146        42.407    23748009.34241
  97244163.42741     -2421.06641        29.695
  21332153.14449 112101290.00449     -1997.56649        49.850    21332153.26646
  87351693.24446     -1556.54746        41.304
  25245073.93843 132663739.02143     -2236.92643        35.767    25245075.30041
 103374375.26141     -1743.06641        16.473
  20789360.84749 109248866.18449       490.70749        48.488    20789360.38446
  85129004.12646       382.36746        42.569
  22372615.33747 117568968.90047     -2571.16447        45.022    22372614.02443
  91612201.60143     -2003.50843        36.439
  20862969.17248 109635690.76748       282.66448        47.684    20862967.89847
  85430416.77947       220.25447        44.886
  23756338.20045 124840405.42045      2580.30545        39.948    23756341.45543
  97278255.80843      2010.62543        35.359
  22739868.38547 119498839.17147      1924.02747        44.761    22739870.66144
  93115982.09644      1499.23844        38.302
  24155274.75646 126936824.98046     -3843.89146        41.122    24155276.63444
  98911825.23144     -2995.24244        36.864
  24893100.57044 130814131.86144      3745.47744        38.759    24893105.78442
 101933101.92342      2918.55142        33.894
 17  8 21  0 16 30.0000000  0 11G10G13G15G16G18G20G21G24G27G29G32
  21990571.52349 115561251.25149      2014.60549        47.934    21990573.91146
  90047749.12746      1569.82046        41.246
  23765775.25946 124890023.86146     -3116.90646        42.932    23765775.02142
  97316913.41342     -2428.76242        32.519
  21343602.78749 112161458.17149     -2013.57449        49.738    21343602.85745
  87398577.52745     -1569.02345        40.777
  25257867.65144 132730970.33644     -2245.10944        38.885    25257868.73441
 103426763.26641     -1749.43841        30.387
  20786579.90249 109234251.96149       483.57449        48.638    20786579.35246
  85117616.42946       376.80946        42.247
  22387304.62747 117646161.43847     -2575.09047        44.686    22387302.93444
  91672351.60244     -2006.56644        36.887
  20861386.60448 109627374.54448       271.69148        47.716    20861385.42447
  85423936.60747       211.70347        45.083
  23741629.56745 124763112.27145      2572.78545        39.035    23741632.73543
  97218027.42743      2004.76643        35.971
  22728932.21748 119441367.45448      1907.25848        45.557    22728934.16645
  93071198.95845      1486.17245        39.298
  24177222.84546 127052164.12546     -3845.11746        42.602    24177225.02241
  99001699.78541     -2996.19941        31.858
  24871724.27144 130701799.64144      3743.54344        38.587    24871729.80843
 101845570.43343      2917.04343        36.086
 17  8 21  0 17  0.0000000  0 11G10G13G15G16G18G20G21G24G27G29G32
  21979090.80648 115500919.79348      2007.50448        47.338    21979093.02146
  90000737.62746      1564.28546        41.413
  23783598.51646 124983683.06746     -3126.72346        42.960    23783597.56142
  97389894.59542     -2436.41442        32.346
  21355144.11549 112222108.04949     -2029.74649        49.731    21355144.03246
  87445837.17146     -1581.62546        41.158
  25270706.96544 132798441.70444     -2252.75844        38.175    25270707.99741
 103479338.28741     -1755.40241        25.281
  20783840.18949 109219853.97349       476.28549        48.575    20783839.49346
  85106397.22746       371.12946        42.945
  22402016.12247 117723470.00147     -2578.87147        44.663    22402014.10443
  91732592.05443     -2009.51243        35.326
  20859866.43549 109619385.80549       260.74249        47.991    20859865.41547
  85417711.61847       203.17247        44.655
  23726964.55445 124686047.15345      2564.80545        40.800    23726967.52943
  97157976.73743      1998.54743        36.304
  22718091.82447 119384399.12047      1890.27047        44.907    22718093.33645
  93026808.07745      1472.93445        39.971
  24199179.21946 127167544.27146     -3846.85546        42.569    24199181.22041
  99091606.33641     -2997.55541        31.124
  24850360.35445 130589531.72245      3740.95745        40.172    24850365.53542
 101758089.05142      2915.02742        32.692
 17  8 21  0 17 30.0000000  0 10G10G13G15G18G20G21G24G27G29G32
  21967651.24948 115440804.60148      2000.14148        47.371    21967653.27146
  89953894.63246      1558.54746        41.247
  23801477.23345 125077636.00145     -3136.85545        40.667    23801476.56142
  97463104.66342     -2444.30542        32.705
  21366776.71049 112283237.49449     -2045.63349        49.701    21366776.45246
  87493470.50646     -1594.00446        41.562
  20781141.48149 109205671.78449       469.19949        48.696    20781140.61946
  85095346.17046       365.60546        42.436
  22416748.98147 117800893.73847     -2582.62947        44.011    22416747.37043
  91792922.22243     -2012.44143        36.306
  20858409.01149 109611726.51649       249.80149        47.952    20858408.05247
  85411743.34147       194.64847        44.682
  23712343.92346 124609213.00946      2557.18846        41.633    23712346.81043
  97098106.01443      1992.60943        36.576
  22707347.40148 119327936.11348      1873.62548        45.744    22707348.55945
  92982810.93845      1459.96545        39.912
  24221142.73946 127282962.95946     -3847.87946        41.635    24221144.74843
  99181542.89743     -2998.35243        35.905
  24829008.96145 130477330.19545      3739.05945        40.529    24829014.14342
 101670659.38642      2913.55542        32.799
 17  8 21  0 18  0.0000000  0 10G10G13G15G18G20G21G24G27G29G32
  21956252.88248 115380905.75348      1992.79748        47.519    21956254.77046
  89907220.20946      1552.82446        41.542
  23819410.98945 125171880.04345     -3146.37945        40.258    23819411.21142
  97536541.51942     -2451.72742        32.364
  21378499.96849 112344843.88749     -2061.48049        49.623    21378499.76846
  87541475.47146     -1606.35246        41.393
  20778483.62549 109191704.95649       461.97749        48.349    20778482.77846
  85084462.94346       359.98046        42.397
  22431503.79147 117878431.79747     -2586.56247        43.785    22431502.67744
  91853341.46044     -2015.50844        38.156
  20857014.53348 109604398.00248       238.85248        47.760    20857013.61647
  85406032.80947       186.11347        45.122
  23697767.61145 124532612.52445      2549.44145        40.359    23697770.34844
  97038417.33844      1986.57444        37.674
  22696699.30548 119271980.36348      1856.48848        45.708    22696700.60045
  92939209.08045      1446.60945        39.675
  24243112.59446 127398417.12946     -3848.89146        41.644    24243115.04842
  99271507.07942     -2999.14542        32.909
  24807670.90945 130365197.27545      3736.52045        40.813    24807676.19543
 101583283.18143      2911.57443        35.724
 17  8 21  0 18 30.0000000  0 10G10G13G15G18G20G21G24G27G29G32
  21944895.56348 115321223.31548      1985.80148        47.392    21944897.68446
  89860714.42846      1547.37546        41.684
  23837399.36545 125266412.58345     -3155.84045        39.019    23837400.41141
  97610203.14841     -2459.10241        28.909
  21390313.57849 112406925.06249     -2077.12149        49.693    21390313.56146
  87589850.40246     -1618.53946        41.176
  20775866.57849 109177953.33449       454.86349        48.271    20775865.88246
  85073747.39246       354.43846        42.776
  22446280.55847 117956083.45647     -2590.33247        44.681    22446279.39743
  91913849.27043     -2018.44543        35.758
  20855683.07849 109597400.99849       227.66449        48.010    20855682.17447
  85400580.60447       177.39847        45.060
  23683235.60344 124456249.40544      2541.55544        38.030    23683238.89243
  96978913.68543      1980.43443        35.328
  22686148.03047 119216533.80747      1839.74247        45.300    22686149.67745
  92896003.98845      1433.56245        40.251
  24265089.23746 127513904.60446     -3850.18846        41.723    24265091.60442
  99361497.21642     -3000.15242        34.001
  24786346.29645 130253135.01445      3734.21945        40.661    24786351.41441
 101495962.05041      2909.78141        31.804
 17  8 21  0 19  0.0000000  0 10G10G13G15G18G20G21G24G27G29G32
  21933579.33448 115261757.40848      1978.64848        47.341    21933581.95846
  89814377.38646      1541.80146        42.119
  23855442.68745 125361230.74845     -3165.49245        40.741    23855443.28741
  97684087.42941     -2466.62141        32.117
  21402217.16749 112469478.59749     -2092.95349        49.462    21402217.07845
  87638593.40945     -1630.87545        40.945
  20773290.38449 109164416.21349       447.67249        48.220    20773289.64446
  85063198.99246       348.83246        42.572
  22461078.58847 118033847.93947     -2594.01247        44.408    22461077.57844
  91974444.94644     -2021.31244        37.028
  20854415.01749 109590736.94849       216.55549        48.036    20854414.10747
  85395387.83947       168.74247        45.038
  23668749.32545 124380126.81145      2533.47345        40.160    23668753.27144
  96919597.44044      1974.13344        37.255
  22675693.89747 119161598.36547      1822.63347        44.853    22675695.87345
  92853197.15145      1420.23045        39.199
  24287072.18347 127629422.56747     -3851.02747        43.403    24287074.09542
  99451511.12442     -3000.80542        32.277
  24765035.35145 130141145.57945      3731.93045        40.990    24765040.54143
 101408697.65743      2907.99643        35.970
 17  8 21  0 19 30.0000000  0 10G10G13G15G18G20G21G24G27G29G32
  21922304.49148 115202508.12448      1971.40248        47.340    21922307.45346
  89768209.14346      1536.15646        42.224
  23873539.96746 125456331.80046     -3174.81646        42.365    23873540.06042
  97758192.12042     -2473.88742        32.589
  21414210.09749 112532502.21349     -2108.59449        49.403    21414209.81346
  87687702.71446     -1643.06246        41.155
  20770754.93149 109151092.86949       440.60949        47.984    20770753.98846
  85052817.17746       343.32846        41.638
  22475897.99747 118111724.43847     -2597.93847        43.991    22475897.40244
  92035127.92044     -2024.37144        37.409
  20853210.77649 109584407.91149       205.41049        48.019    20853209.66547
  85390456.12747       160.05947        44.770
  23654310.30046 124304247.30746      2525.01246        41.428    23654313.90844
  96860470.59044      1967.53944        36.984
  22665337.32847 119107175.89147      1805.28147        44.978    22665339.59545
  92810790.06145      1406.71145        40.122
  24309060.32046 127744968.52546     -3851.89146        42.808    24309061.56242
  99541546.86742     -3001.47742        32.854
  24743738.76745 130029231.18345      3729.05945        39.950    24743743.38741
 101321491.73341      2905.76241        28.634
 17  8 21  0 20  0.0000000  0 10G10G13G15G18G20G21G24G27G29G32
  21911070.97748 115143475.57348      1964.10548        47.603    21911074.00746
  89722209.77746      1530.46946        42.589
  23891690.69046 125551712.82146     -3184.20346        42.862    23891690.40542
  97832514.98342     -2481.19942        32.380
  21426291.94449 112595993.22749     -2124.16449        49.287    21426291.78145
  87737176.21845     -1655.19545        41.101
  20768260.25849 109137983.21349       433.32849        48.243    20768259.14846
  85042601.85946       337.65646        41.962
  22490738.68547 118189711.95147     -2601.39547        44.388    22490737.87243
  92095897.39443     -2027.06243        36.311
  20852070.27749 109578414.24149       194.26649        48.061    20852068.90347
  85385785.73447       151.37147        44.704
  23639918.23945 124228614.44945      2517.01645        41.045    23639921.16343
  96801535.89743      1961.30943        35.385
  22655079.05447 119053268.27047      1788.26647        44.970    22655081.51645
  92768784.13945      1393.44945        39.847
  24331053.16246 127860539.67146     -3852.73446        42.860    24331053.94342
  99631602.22642     -3002.13342        32.517
  24722456.47945 129917393.85845      3726.53545        39.796    24722461.27642
 101234345.88742      2903.78942        33.334
 17  8 21  0 20 30.0000000  0 10G10G13G15G18G20G21G24G27G29G32
  21899878.75049 115084659.84049      1956.89849        47.783    21899881.64546
  89676379.34846      1524.85246        41.552
  23909894.32846 125647371.33246     -3193.22746        43.070    23909893.69541
  97907054.08241     -2488.23041        29.278
  21438462.37149 112659949.42149     -2139.61349        49.375    21438462.08846
  87787012.20746     -1667.23446        41.153
  20765806.22949 109125086.77149       426.28549        48.220    20765805.06046
  85032552.69746       332.16846        42.451
  22505600.17047 118267809.81147     -2605.10547        44.359    22505599.52144
  92156752.86544     -2029.95744        36.939
  20850993.69049 109572756.82349       182.89549        48.135    20850992.14947
  85381377.35347       142.51247        44.414
  23625573.04645 124153231.29545      2508.61345        39.926    23625575.98042
  96742795.79242      1954.76242        33.801
  22644919.20547 118999877.34247      1771.10947        44.925    22644921.54845
  92727180.84145      1380.08245        40.747
  24353050.46346 127976133.86146     -3853.52046        43.207    24353051.14842
  99721675.53542     -3002.75042        32.486
  24701189.06844 129805635.77244      3724.00844        37.635    24701194.10542
 101147261.77142      2901.82042        34.150
 17  8 21  0 21  0.0000000  0 10G10G13G15G18G20G21G24G27G29G32
  21888727.86149 115026061.01649      1949.59449        47.830    21888730.51746
  89630717.93446      1519.16046        41.622
  23928150.05246 125743304.56246     -3202.53946        41.640    23928149.58941
  97981807.24841     -2495.48841        28.961
  21450720.89649 112724368.10249     -2155.03949        49.736    21450720.43345
  87837208.58145     -1679.25445        40.203
  20763392.71049 109112403.23549       419.16049        48.425    20763391.49146
  85022669.42646       326.61346        42.472
  22520482.40046 118346017.24546     -2609.04746        43.063    22520482.48344
  92217693.67944     -2033.02744        38.665
  20849981.44649 109567437.36849       171.68049        48.047    20849979.79347
  85377232.32647       133.77347        44.506
  23611275.93845 124078101.04345      2499.97345        39.839    23611278.92443
  96684252.77243      1948.02743        36.250
